[
  {
    "Team Id": "ABC",
    "Unique Id": "DhBaHdAb",
    "Order ID": 2001,
    "Item": "Clothes",
    "Priority": "LP",
    "Quantity": 1,
    "City": "Mumbai",
    "Longitude": "72.8777",
    "Latitude": "19.0760",
    "Order Dispatched": "Yes",
    "Order Shipped": "Yes",
    "Order Time": "2021-02-19 15:45:46",
    "Dispatch Time": "2021-02-19 15:52:54",
    "Shipping Time": "2021-12-08 1:54:33",
    "Time Taken": "6994:08:47"
  },
  {
    "Team Id": "ABC",
    "Unique Id": "DhBaHdAb",
    "Order ID": 1001,
    "Item": "Medicine",
    "Priority": "HP",
    "Quantity": 1,
    "City": "Delhi",
    "Longitude": "77.1025",
    "Latitude": "28.7041",
    "Order Dispatched": "Yes",
    "Order Shipped": "Yes",
    "Order Time": "2021-02-19 15:45:54",
    "Dispatch Time": "2021-02-19 15:53:43",
    "Shipping Time": "2021-12-10 1:54:33",
    "Time Taken": "7042:08:39"
  },
  {
    "Team Id": "ABC",
    "Unique Id": "DhBaHdAb",
    "Order ID": 4001,
    "Item": "Food",
    "Priority": "MP",
    "Quantity": 1,
    "City": "Chennai",
    "Longitude": "80.2707",
    "Latitude": "13.0827",
    "Order Dispatched": "Yes",
    "Order Shipped": "Yes",
    "Order Time": "2021-02-19 15:46:03",
    "Dispatch Time": "2021-02-19 15:53:43",
    "Shipping Time": "2021-12-12 1:54:33",
    "Time Taken": "7090:08:30"
  },
  {
    "Team Id": "ABC",
    "Unique Id": "DhBaHdAb",
    "Order ID": 3001,
    "Item": "Food",
    "Priority": "MP",
    "Quantity": 1,
    "City": "Kolkata",
    "Longitude": "88.3639",
    "Latitude": "22.5726",
    "Order Dispatched": "Yes",
    "Order Shipped": "Yes",
    "Order Time": "2021-02-19 15:47:01",
    "Dispatch Time": "2021-02-19 15:53:43",
    "Shipping Time": "2021-12-14 1:54:33",
    "Time Taken": "7138:07:32"
  },
  {
    "Team Id": "ABC",
    "Unique Id": "DhBaHdAb",
    "Order ID": 2002,
    "Item": "Clothes",
    "Priority": "LP",
    "Quantity": 1,
    "City": "Pune",
    "Longitude": "73.8567",
    "Latitude": "18.5204",
    "Order Dispatched": "Yes",
    "Order Shipped": "No",
    "Order Time": "2021-02-19 15:47:11",
    "Dispatch Time": "2021-02-19 15:53:43",
    "Shipping Time": "",
    "Time Taken": "6994:07:22"
  },
  {
    "Team Id": "ABC",
    "Unique Id": "DhBaHdAb",
    "Order ID": 4002,
    "Item": "Medicine",
    "Priority": "HP",
    "Quantity": 1,
    "City": "Hyderabad",
    "Longitude": "78.4867",
    "Latitude": "17.3850",
    "Order Dispatched": "Yes",
    "Order Shipped": "No",
    "Order Time": "2021-02-19 15:47:20",
    "Dispatch Time": "2021-02-19 15:53:43",
    "Shipping Time": "",
    "Time Taken": "6994:07:13"
  },
  {
    "Team Id": "ABC",
    "Unique Id": "DhBaHdAb",
    "Order ID": 3002,
    "Item": "Clothes",
    "Priority": "LP",
    "Quantity": 1,
    "City": "Gangtok",
    "Longitude": "88.6065",
    "Latitude": "27.3389",
    "Order Dispatched": "Yes",
    "Order Shipped": "No",
    "Order Time": "2021-02-19 15:52:38",
    "Dispatch Time": "2021-02-19 15:53:43",
    "Shipping Time": "",
    "Time Taken": "6994:01:55"
  },
  {
    "Team Id": "ABC",
    "Unique Id": "DhBaHdAb",
    "Order ID": 1002,
    "Item": "Medicine",
    "Priority": "HP",
    "Quantity": 1,
    "City": "Amritsar",
    "Longitude": "74.8722",
    "Latitude": "31.6339",
    "Order Dispatched": "Yes",
    "Order Shipped": "No",
    "Order Time": "2021-02-19 15:52:46",
    "Dispatch Time": "2021-02-19 15:53:43",
    "Shipping Time": "",
    "Time Taken": "6994:01:47"
  },
  {
    "Team Id": "ABC",
    "Unique Id": "DhBaHdAb",
    "Order ID": 4003,
    "Item": "Food",
    "Priority": "MP",
    "Quantity": 1,
    "City": "Bangalore",
    "Longitude": "77.5806",
    "Latitude": "12.9724",
    "Order Dispatched": "No",
    "Order Shipped": "No",
    "Order Time": "2021-02-19 15:52:55",
    "Dispatch Time": "",
    "Shipping Time": "",
    "Time Taken": "6994:01:38"
  },
  {
    "Team Id": "ABC",
    "Unique Id": "DhBaHdAb",
    "Order ID": 1003,
    "Item": "Clothes",
    "Priority": "LP",
    "Quantity": 1,
    "City": "Shimla",
    "Longitude": "77.1734",
    "Latitude": "31.1046",
    "Order Dispatched": "No",
    "Order Shipped": "No",
    "Order Time": "2021-02-19 15:54:35",
    "Dispatch Time": "",
    "Shipping Time": "",
    "Time Taken": "6993:59:58"
  },
  {
    "Team Id": "ABC",
    "Unique Id": "DhBaHdAb",
    "Order ID": 3003,
    "Item": "Medicine",
    "Priority": "HP",
    "Quantity": 1,
    "City": "Ranchi",
    "Longitude": "85.2960",
    "Latitude": "23.3443",
    "Order Dispatched": "No",
    "Order Shipped": "No",
    "Order Time": "2021-02-19 15:56:15",
    "Dispatch Time": "",
    "Shipping Time": "",
    "Time Taken": "6993:58:18"
  },
  {
    "Team Id": "ABC",
    "Unique Id": "DhBaHdAb",
    "Order ID": 2003,
    "Item": "Food",
    "Priority": "MP",
    "Quantity": 1,
    "City": "Ahmedabad",
    "Longitude": "72.5850",
    "Latitude": "23.0338",
    "Order Dispatched": "No",
    "Order Shipped": "No",
    "Order Time": "2021-02-19 15:59:59",
    "Dispatch Time": "",
    "Shipping Time": "",
    "Time Taken": "6993:54:34"
  }
]
